city,province,lat,lon
南昌,江西,28.68,115.88
抚州,江西,27.98,116.35
庐山,江西,29.57,115.97
龙虎山,江西,28.11,116.96
长沙,湖南,28.20,112.97
湘潭,湖南,27.85,112.90
张家界,湖南,29.13,110.48
杭州,浙江,30.25,120.17
上海,上海,31.20,121.50
北京,北京,39.91,116.39